{
  "geofences": [
    { "uuid": "A28C6912-7685-44E4-A6D5-3DD4E1EBD780", "name": "La Vieille Gabelle",           "center": { "latitude": 49.027769, "longitude": 1.148113}, "radius": 50.0},
    { "uuid": "A28C6912-7685-44E4-A6D5-3DD4E1EBD781", "name": "Côté Rotisserie",              "center": { "latitude": 49.027544, "longitude": 1.152286}, "radius": 50.0},
    { "uuid": "A28C6912-7685-44E4-A6D5-3DD4E1EBD782", "name": "Le Maharadjah",                "center": { "latitude": 49.027537, "longitude": 1.148242}, "radius": 50.0},
    { "uuid": "A28C6912-7685-44E4-A6D5-3DD4E1EBD783", "name": "Le 17",                        "center": { "latitude": 49.027192, "longitude": 1.146750}, "radius": 50.0},
    { "uuid": "A28C6912-7685-44E4-A6D5-3DD4E1EBD784", "name": "La Sarrazine",                 "center": { "latitude": 49.027664, "longitude": 1.149754}, "radius": 50.0},
    { "uuid": "A28C6912-7685-44E4-A6D5-3DD4E1EBD785", "name": "Relais d'Alsace",              "center": { "latitude": 49.026988, "longitude": 1.147834}, "radius": 50.0},
    { "uuid": "A28C6912-7685-44E4-A6D5-3DD4E1EBD786", "name": "Le Café Des Arts",             "center": { "latitude": 49.027080, "longitude": 1.150205}, "radius": 50.0},
    { "uuid": "A28C6912-7685-44E4-A6D5-3DD4E1EBD787", "name": "London Pub Tavern",            "center": { "latitude": 49.028015, "longitude": 1.151932}, "radius": 50.0},
    { "uuid": "A28C6912-7685-44E4-A6D5-3DD4E1EBD788", "name": "Le Petit Bruit de L'Oeuf Dur", "center": { "latitude": 49.025715, "longitude": 1.146622}, "radius": 50.0},
    { "uuid": "A28C6912-7685-44E4-A6D5-3DD4E1EBD789", "name": "Le Matahari",                  "center": { "latitude": 49.025849, "longitude": 1.149282}, "radius": 50.0}
  ]
}